[{"name":"Tokyo","lat":35.69,"lng":139.75,"pop":35676000,"capital":true},{"name":"New York","lat":40.75,"lng":-73.98,"pop":19040000,"capital":false},{"name":"Mexico City","lat":19.44,"lng":-99.13,"pop":19028000,"capital":true},{"name":"Mumbai","lat":19.02,"lng":72.86,"pop":18978000,"capital":false},{"name":"São Paulo","lat":-23.56,"lng":-46.63,"pop":18845000,"capital":false},{"name":"Shanghai","lat":31.22,"lng":121.43,"pop":14987000,"capital":false},{"name":"Kolkata","lat":22.5,"lng":88.32,"pop":14787000,"capital":false},{"name":"Dhaka","lat":23.73,"lng":90.41,"pop":12797394,"capital":true},{"name":"Buenos Aires","lat":-34.6,"lng":-58.4,"pop":12795000,"capital":true},{"name":"Los Angeles","lat":33.99,"lng":-118.18,"pop":12500000,"capital":false},{"name":"Cairo","lat":30.05,"lng":31.25,"pop":11893000,"capital":true},{"name":"Rio de Janeiro","lat":-22.92,"lng":-43.23,"pop":11748000,"capital":false},{"name":"Ōsaka","lat":34.75,"lng":135.46,"pop":11294000,"capital":false},{"name":"Beijing","lat":39.93,"lng":116.39,"pop":11106000,"capital":true},{"name":"Manila","lat":14.61,"lng":120.98,"pop":11100000,"capital":true},{"name":"Moscow","lat":55.75,"lng":37.61,"pop":10452000,"capital":true},{"name":"Istanbul","lat":41.11,"lng":29.01,"pop":10061000,"capital":false},{"name":"Paris","lat":48.87,"lng":2.33,"pop":9904000,"capital":true},{"name":"Seoul","lat":37.57,"lng":127,"pop":9796000,"capital":true},{"name":"Lagos","lat":6.45,"lng":3.39,"pop":9466000,"capital":false},{"name":"Jakarta","lat":-6.17,"lng":106.83,"pop":9125000,"capital":true},{"name":"Chicago","lat":41.83,"lng":-87.75,"pop":8990000,"capital":false},{"name":"London","lat":51.5,"lng":-0.12,"pop":8567000,"capital":true},{"name":"Lima","lat":-12.05,"lng":-77.05,"pop":8012000,"capital":true},{"name":"Tehran","lat":35.67,"lng":51.42,"pop":7873000,"capital":true},{"name":"Kinshasa","lat":-4.33,"lng":15.31,"pop":7843000,"capital":true},{"name":"Bogota","lat":4.6,"lng":-74.09,"pop":7772000,"capital":true},{"name":"Hong Kong","lat":22.31,"lng":114.18,"pop":7206000,"capital":false},{"name":"Taipei","lat":25.04,"lng":121.57,"pop":6900273,"capital":true},{"name":"Bengaluru","lat":12.97,"lng":77.56,"pop":6787000,"capital":false},{"name":"Bangkok","lat":13.75,"lng":100.51,"pop":6704000,"capital":true},{"name":"Santiago","lat":-33.45,"lng":-70.67,"pop":5720000,"capital":true},{"name":"Miami","lat":25.79,"lng":-80.23,"pop":5585000,"capital":false},{"name":"Madrid","lat":40.4,"lng":-3.69,"pop":5567000,"capital":true},{"name":"Toronto","lat":43.7,"lng":-79.42,"pop":5213000,"capital":false},{"name":"Singapore","lat":1.29,"lng":103.85,"pop":5183700,"capital":true},{"name":"Luanda","lat":-8.84,"lng":13.23,"pop":5172900,"capital":true},{"name":"Baghdad","lat":33.34,"lng":44.39,"pop":5054000,"capital":true},{"name":"Khartoum","lat":15.59,"lng":32.53,"pop":4754000,"capital":true},{"name":"Sydney","lat":-33.92,"lng":151.18,"pop":4630000,"capital":false},{"name":"Atlanta","lat":33.83,"lng":-84.4,"pop":4506000,"capital":false},{"name":"Riyadh","lat":24.64,"lng":46.77,"pop":4465000,"capital":true},{"name":"Houston","lat":29.82,"lng":-95.34,"pop":4459000,"capital":false},{"name":"Hanoi","lat":21.04,"lng":105.85,"pop":4378000,"capital":true},{"name":"Washington,  D.C.","lat":38.9,"lng":-77.01,"pop":4338000,"capital":true},{"name":"Melbourne","lat":-37.82,"lng":144.97,"pop":4170000,"capital":false},{"name":"Chengdu","lat":30.67,"lng":104.07,"pop":4123000,"capital":false},{"name":"Yangon","lat":16.79,"lng":96.16,"pop":4088000,"capital":false},{"name":"Abidjan","lat":5.32,"lng":-4.04,"pop":3802000,"capital":true},{"name":"Brasília","lat":-15.78,"lng":-47.92,"pop":3716996,"capital":true},{"name":"Ankara","lat":39.93,"lng":32.86,"pop":3716000,"capital":true},{"name":"Monterrey","lat":25.67,"lng":-100.33,"pop":3712000,"capital":false},{"name":"Ürümqi","lat":43.81,"lng":87.57,"pop":3575000,"capital":false},{"name":"San Francisco","lat":37.77,"lng":-122.42,"pop":3450000,"capital":false},{"name":"Johannesburg","lat":-26.17,"lng":28.03,"pop":3435000,"capital":false},{"name":"Berlin","lat":52.52,"lng":13.4,"pop":3406000,"capital":true},{"name":"Algiers","lat":36.77,"lng":3.05,"pop":3354000,"capital":true},{"name":"Rome","lat":41.9,"lng":12.48,"pop":3339000,"capital":true},{"name":"Pyongyang","lat":39.02,"lng":125.75,"pop":3300000,"capital":true},{"name":"Kabul","lat":34.52,"lng":69.18,"pop":3277000,"capital":true},{"name":"Athens","lat":37.99,"lng":23.73,"pop":3242000,"capital":true},{"name":"Cape Town","lat":-33.92,"lng":18.43,"pop":3215000,"capital":true},{"name":"Casablanca","lat":33.6,"lng":-7.62,"pop":3181000,"capital":false},{"name":"Tel Aviv","lat":32.08,"lng":34.77,"pop":3112000,"capital":false},{"name":"Addis Ababa","lat":9.04,"lng":38.7,"pop":3100000,"capital":true},{"name":"Nairobi","lat":-1.28,"lng":36.81,"pop":3010000,"capital":true},{"name":"Caracas","lat":10.5,"lng":-66.92,"pop":2985000,"capital":true},{"name":"Dar es Salaam","lat":-6.8,"lng":39.27,"pop":2930000,"capital":true},{"name":"Lisbon","lat":38.72,"lng":-9.15,"pop":2812000,"capital":true},{"name":"Kyiv","lat":50.44,"lng":30.51,"pop":2709000,"capital":true},{"name":"Dakar","lat":14.72,"lng":-17.48,"pop":2604000,"capital":true},{"name":"Damascus","lat":33.5,"lng":36.3,"pop":2466000,"capital":true},{"name":"Tunis","lat":36.8,"lng":10.18,"pop":2412500,"capital":true},{"name":"Vienna","lat":48.2,"lng":16.36,"pop":2400000,"capital":true},{"name":"Vancouver","lat":49.28,"lng":-123.12,"pop":2313328,"capital":false},{"name":"Denver","lat":39.74,"lng":-104.99,"pop":2313000,"capital":false},{"name":"Tripoli","lat":32.89,"lng":13.18,"pop":2189000,"capital":true},{"name":"Tashkent","lat":41.31,"lng":69.29,"pop":2184000,"capital":true},{"name":"Havana","lat":23.13,"lng":-82.37,"pop":2174000,"capital":true},{"name":"Santo Domingo","lat":18.47,"lng":-69.9,"pop":2154000,"capital":true},{"name":"Baku","lat":40.4,"lng":49.86,"pop":2122300,"capital":true},{"name":"Accra","lat":5.55,"lng":-0.22,"pop":2121000,"capital":true},{"name":"Kuwait City","lat":29.37,"lng":47.98,"pop":2063000,"capital":true},{"name":"Sanaa","lat":15.36,"lng":44.2,"pop":2008000,"capital":true},{"name":"Port-au-Prince","lat":18.54,"lng":-72.34,"pop":1998000,"capital":true},{"name":"Bucharest","lat":44.44,"lng":26.1,"pop":1942000,"capital":true},{"name":"Asunción","lat":-25.29,"lng":-57.64,"pop":1870000,"capital":true},{"name":"Beirut","lat":33.87,"lng":35.51,"pop":1846000,"capital":true},{"name":"Kyoto","lat":35.03,"lng":135.75,"pop":1805000,"capital":false},{"name":"Minsk","lat":53.9,"lng":27.56,"pop":1805000,"capital":true},{"name":"Brussels","lat":50.84,"lng":4.33,"pop":1743000,"capital":true},{"name":"Warsaw","lat":52.25,"lng":21,"pop":1707000,"capital":true},{"name":"Rabat","lat":34.03,"lng":-6.84,"pop":1705000,"capital":true},{"name":"Quito","lat":-0.21,"lng":-78.5,"pop":1701000,"capital":true},{"name":"Antananarivo","lat":-18.91,"lng":47.51,"pop":1697000,"capital":true},{"name":"Budapest","lat":47.5,"lng":19.08,"pop":1679000,"capital":true},{"name":"Yaoundé","lat":3.87,"lng":11.51,"pop":1611000,"capital":true},{"name":"La Paz","lat":-16.5,"lng":-68.15,"pop":1590000,"capital":true},{"name":"Abuja","lat":9.09,"lng":7.53,"pop":1576000,"capital":true},{"name":"Harare","lat":-17.82,"lng":31.04,"pop":1572000,"capital":true},{"name":"Montevideo","lat":-34.86,"lng":-56.17,"pop":1513000,"capital":true},{"name":"Bamako","lat":12.65,"lng":-8,"pop":1494000,"capital":true},{"name":"Conakry","lat":9.53,"lng":-13.68,"pop":1494000,"capital":true},{"name":"Phnom Penh","lat":11.55,"lng":104.91,"pop":1466000,"capital":true},{"name":"Lomé","lat":6.13,"lng":1.22,"pop":1452000,"capital":true},{"name":"Doha","lat":25.29,"lng":51.53,"pop":1450000,"capital":true},{"name":"Kuala Lumpur","lat":3.17,"lng":101.7,"pop":1448000,"capital":true},{"name":"Maputo","lat":-25.95,"lng":32.59,"pop":1446000,"capital":true},{"name":"San Salvador","lat":13.71,"lng":-89.2,"pop":1433000,"capital":true},{"name":"Kampala","lat":0.32,"lng":32.58,"pop":1420000,"capital":true},{"name":"The Hague","lat":52.08,"lng":4.27,"pop":1406000,"capital":false},{"name":"Dubai","lat":25.23,"lng":55.28,"pop":1379000,"capital":false},{"name":"Auckland","lat":-36.85,"lng":174.76,"pop":1377200,"capital":false},{"name":"Brazzaville","lat":-4.26,"lng":15.28,"pop":1355000,"capital":true},{"name":"Pretoria","lat":-25.7,"lng":28.23,"pop":1338000,"capital":true},{"name":"Lusaka","lat":-15.41,"lng":28.28,"pop":1328000,"capital":true},{"name":"San José","lat":9.94,"lng":-84.09,"pop":1284000,"capital":true},{"name":"Panama City","lat":8.97,"lng":-79.53,"pop":1281000,"capital":true},{"name":"Stockholm","lat":59.35,"lng":18.1,"pop":1264000,"capital":true},{"name":"Geneva","lat":46.21,"lng":6.14,"pop":1240000,"capital":false},{"name":"Sofia","lat":42.69,"lng":23.31,"pop":1185000,"capital":true},{"name":"Prague","lat":50.09,"lng":14.46,"pop":1162000,"capital":true},{"name":"Ouagadougou","lat":12.37,"lng":-1.53,"pop":1149000,"capital":true},{"name":"Ottawa","lat":45.42,"lng":-75.7,"pop":1145000,"capital":true},{"name":"Helsinki","lat":60.18,"lng":24.93,"pop":1115000,"capital":true},{"name":"Yerevan","lat":40.18,"lng":44.51,"pop":1102000,"capital":true},{"name":"Mogadishu","lat":2.07,"lng":45.36,"pop":1100000,"capital":true},{"name":"Tbilisi","lat":41.73,"lng":44.79,"pop":1100000,"capital":true},{"name":"Belgrade","lat":44.82,"lng":20.47,"pop":1099000,"capital":true},{"name":"Dushanbe","lat":38.56,"lng":68.77,"pop":1086244,"capital":true},{"name":"København","lat":55.68,"lng":12.56,"pop":1085000,"capital":true},{"name":"Amman","lat":31.95,"lng":35.93,"pop":1060000,"capital":true},{"name":"Dublin","lat":53.34,"lng":-6.25,"pop":1059000,"capital":true},{"name":"Monrovia","lat":6.31,"lng":-10.8,"pop":1041000,"capital":true},{"name":"Amsterdam","lat":52.35,"lng":4.91,"pop":1031000,"capital":true},{"name":"Jerusalem","lat":31.78,"lng":35.21,"pop":1029300,"capital":true},{"name":"Guatemala City","lat":14.62,"lng":-90.53,"pop":1024000,"capital":true},{"name":"N'Djamena","lat":12.12,"lng":15.05,"pop":989000,"capital":true},{"name":"Tegucigalpa","lat":14.1,"lng":-87.22,"pop":946000,"capital":true},{"name":"Kingston","lat":17.98,"lng":-76.77,"pop":937700,"capital":true},{"name":"Naypyidaw","lat":19.77,"lng":96.12,"pop":930000,"capital":true},{"name":"Djibouti","lat":11.6,"lng":43.15,"pop":923000,"capital":true},{"name":"Managua","lat":12.15,"lng":-86.27,"pop":920000,"capital":true},{"name":"Niamey","lat":13.52,"lng":2.11,"pop":915000,"capital":true},{"name":"Tirana","lat":41.33,"lng":19.82,"pop":895350,"capital":true},{"name":"Kathmandu","lat":27.72,"lng":85.31,"pop":895000,"capital":true},{"name":"Ulaanbaatar","lat":47.92,"lng":106.91,"pop":885000,"capital":true},{"name":"Kigali","lat":-1.95,"lng":30.06,"pop":860000,"capital":true},{"name":"Valparaíso","lat":-33.05,"lng":-71.62,"pop":854000,"capital":false},{"name":"Bishkek","lat":42.88,"lng":74.58,"pop":837000,"capital":true},{"name":"Oslo","lat":59.92,"lng":10.75,"pop":835000,"capital":true},{"name":"Bangui","lat":4.37,"lng":18.56,"pop":831925,"capital":true},{"name":"Freetown","lat":8.47,"lng":-13.24,"pop":827000,"capital":true},{"name":"Islamabad","lat":33.7,"lng":73.16,"pop":780000,"capital":true},{"name":"Cotonou","lat":6.4,"lng":2.52,"pop":762000,"capital":true},{"name":"Vientiane","lat":17.97,"lng":102.6,"pop":754000,"capital":true},{"name":"Riga","lat":56.95,"lng":24.1,"pop":742572,"capital":true},{"name":"Nouakchott","lat":18.09,"lng":-15.98,"pop":742144,"capital":true},{"name":"Muscat","lat":23.61,"lng":58.59,"pop":734697,"capital":true},{"name":"Ashgabat","lat":37.95,"lng":58.38,"pop":727700,"capital":true},{"name":"Zagreb","lat":45.8,"lng":16,"pop":722526,"capital":true},{"name":"Sarajevo","lat":43.85,"lng":18.38,"pop":696731,"capital":true},{"name":"Chișinău","lat":47.01,"lng":28.86,"pop":688134,"capital":true},{"name":"Lilongwe","lat":-13.98,"lng":33.78,"pop":646750,"capital":true},{"name":"Asmara","lat":15.33,"lng":38.93,"pop":620802,"capital":true},{"name":"Abu Dhabi","lat":24.47,"lng":54.37,"pop":603492,"capital":true},{"name":"Port Louis","lat":-20.17,"lng":57.5,"pop":595491,"capital":true},{"name":"Libreville","lat":0.39,"lng":9.46,"pop":578156,"capital":true},{"name":"Manama","lat":26.24,"lng":50.58,"pop":563920,"capital":true},{"name":"Vilnius","lat":54.68,"lng":25.32,"pop":542366,"capital":true},{"name":"Skopje","lat":42,"lng":21.43,"pop":494087,"capital":true},{"name":"Hargeisa","lat":9.56,"lng":44.07,"pop":477876,"capital":true},{"name":"Pristina","lat":42.67,"lng":21.17,"pop":465186,"capital":true},{"name":"Bloemfontein","lat":-29.12,"lng":26.23,"pop":463064,"capital":true},{"name":"Baguio","lat":16.43,"lng":120.57,"pop":447824,"capital":false},{"name":"Bratislava","lat":48.15,"lng":17.12,"pop":423737,"capital":true},{"name":"Bissau","lat":11.87,"lng":-15.6,"pop":403339,"capital":true},{"name":"Tallinn","lat":59.43,"lng":24.73,"pop":394024,"capital":true},{"name":"Wellington","lat":-41.3,"lng":174.78,"pop":393400,"capital":true},{"name":"Valletta","lat":35.9,"lng":14.51,"pop":368250,"capital":true},{"name":"Maseru","lat":-29.32,"lng":27.48,"pop":361324,"capital":true},{"name":"Nur-Sultan","lat":51.18,"lng":71.43,"pop":345604,"capital":true},{"name":"Bujumbura","lat":-3.38,"lng":29.36,"pop":331700,"capital":true},{"name":"Canberra","lat":-35.28,"lng":149.13,"pop":327700,"capital":true},{"name":"New Delhi","lat":28.6,"lng":77.2,"pop":317797,"capital":true},{"name":"Ljubljana","lat":46.06,"lng":14.51,"pop":314807,"capital":true},{"name":"Porto-Novo","lat":6.48,"lng":2.62,"pop":300000,"capital":false},{"name":"Bandar Seri Begawan","lat":4.88,"lng":114.93,"pop":296500,"capital":true},{"name":"Port-of-Spain","lat":10.65,"lng":-61.52,"pop":294934,"capital":true},{"name":"Port Moresby","lat":-9.46,"lng":147.19,"pop":283733,"capital":true},{"name":"Bern","lat":46.92,"lng":7.47,"pop":275329,"capital":true},{"name":"Windhoek","lat":-22.57,"lng":17.08,"pop":268132,"capital":true},{"name":"Georgetown","lat":6.8,"lng":-58.17,"pop":264350,"capital":true},{"name":"Paramaribo","lat":5.84,"lng":-55.17,"pop":254169,"capital":true},{"name":"Dili","lat":-8.56,"lng":125.58,"pop":234331,"capital":true},{"name":"Nassau","lat":25.08,"lng":-77.35,"pop":227940,"capital":true},{"name":"Sucre","lat":-19.04,"lng":-65.26,"pop":224838,"capital":true},{"name":"Nicosia","lat":35.17,"lng":33.37,"pop":224300,"capital":true},{"name":"Dodoma","lat":-6.18,"lng":35.75,"pop":218269,"capital":false},{"name":"Colombo","lat":6.93,"lng":79.86,"pop":217000,"capital":true},{"name":"Gaborone","lat":-24.65,"lng":25.91,"pop":208411,"capital":true},{"name":"Yamoussoukro","lat":6.82,"lng":-5.28,"pop":206499,"capital":true},{"name":"Bridgetown","lat":13.1,"lng":-59.62,"pop":191152,"capital":true},{"name":"Laayoune","lat":27.15,"lng":-13.2,"pop":188084,"capital":false},{"name":"Suva","lat":-18.13,"lng":178.44,"pop":175399,"capital":true},{"name":"Reykjavík","lat":64.15,"lng":-21.95,"pop":166212,"capital":true},{"name":"Malabo","lat":3.75,"lng":8.78,"pop":155963,"capital":true},{"name":"Podgorica","lat":42.47,"lng":19.27,"pop":145850,"capital":true},{"name":"Moroni","lat":-11.7,"lng":43.24,"pop":128698,"capital":true},{"name":"Sri Jayawardenepura Kotte","lat":6.9,"lng":79.95,"pop":115826,"capital":false},{"name":"Praia","lat":14.92,"lng":-23.52,"pop":113364,"capital":true},{"name":"Malé","lat":4.17,"lng":73.5,"pop":112927,"capital":true},{"name":"Juba","lat":4.83,"lng":31.58,"pop":111975,"capital":false},{"name":"Luxembourg","lat":49.61,"lng":6.13,"pop":107260,"capital":true},{"name":"Thimphu","lat":27.47,"lng":89.64,"pop":98676,"capital":true},{"name":"Mbabane","lat":-26.32,"lng":31.13,"pop":90138,"capital":true},{"name":"São Tomé","lat":0.33,"lng":6.73,"pop":88219,"capital":true},{"name":"Honiara","lat":-9.44,"lng":159.95,"pop":76328,"capital":true},{"name":"Putrajaya","lat":2.91,"lng":101.7,"pop":67964,"capital":false},{"name":"Apia","lat":-13.84,"lng":-171.74,"pop":61916,"capital":true},{"name":"Andorra","lat":42.5,"lng":1.52,"pop":53998,"capital":true},{"name":"Kingstown","lat":13.15,"lng":-61.21,"pop":49485,"capital":true},{"name":"Port Vila","lat":-17.73,"lng":168.32,"pop":44040,"capital":true},{"name":"Banjul","lat":13.45,"lng":-16.59,"pop":43094,"capital":true},{"name":"Nuku'alofa","lat":-21.14,"lng":-175.22,"pop":42620,"capital":true},{"name":"Castries","lat":14,"lng":-61,"pop":37963,"capital":true},{"name":"Monaco","lat":43.74,"lng":7.41,"pop":36371,"capital":true},{"name":"Vaduz","lat":47.13,"lng":9.52,"pop":36281,"capital":true},{"name":"Saint John's","lat":17.12,"lng":-61.85,"pop":35499,"capital":true},{"name":"Saint George's","lat":12.05,"lng":-61.74,"pop":33734,"capital":true},{"name":"Victoria","lat":-4.62,"lng":55.45,"pop":33576,"capital":true},{"name":"San Marino","lat":43.94,"lng":12.44,"pop":29579,"capital":true},{"name":"Tarawa","lat":1.34,"lng":173.02,"pop":28802,"capital":true},{"name":"Majuro","lat":7.1,"lng":171.38,"pop":25400,"capital":true},{"name":"Roseau","lat":15.3,"lng":-61.39,"pop":23336,"capital":true},{"name":"Basseterre","lat":17.3,"lng":-62.72,"pop":21887,"capital":true},{"name":"Belmopan","lat":17.25,"lng":-88.77,"pop":15220,"capital":true},{"name":"Lobamba","lat":-26.47,"lng":31.2,"pop":9782,"capital":false},{"name":"Melekeok","lat":7.49,"lng":134.63,"pop":7026,"capital":true},{"name":"Funafuti","lat":-8.52,"lng":179.22,"pop":4749,"capital":true},{"name":"Palikir","lat":6.92,"lng":158.15,"pop":4645,"capital":true},{"name":"Vatican City","lat":41.9,"lng":12.45,"pop":832,"capital":true},{"name":"Bir Lehlou","lat":26.12,"lng":-9.65,"pop":500,"capital":false}]